{
  "acid-drop": {
    "research_data": {
      "spot_id": "acid-drop",
      "spot_name": "Acid Drop",
      "current_coordinates": {
        "lat": 28.72676,
        "lng": -13.993009,
        "accuracy": "verified"
      },
      "research_file_path": "/Users/frederic/github/lavolcanica/docs/surf-spots-coordinates-research/acid-drop-research.md",
      "correlation_analysis": {
        "status": "correlations_found",
        "total_correlations": 2,
        "high_confidence": 0,
        "medium_confidence": 0,
        "low_confidence": 2,
        "high_confidence_matches": [],
        "proposed_coordinates": null
      },
      "descriptions_from_sources": {},
      "url_data": {},
      "recommendations": []
    },
    "markdown_update": "# Acid Drop GPS Coordinate Research - Google Maps Integration\n\n**Spot ID:** acid-drop\n**Primary Name:** Acid Drop\n**Current JSON Coordinates:** 28.72676, -13.993009 (verified)\n\n## Google Maps Integration Analysis\n\n### Correlation Summary\n- **Total Google Maps Matches:** 2\n- **High Confidence:** 0\n- **Medium Confidence:** 0\n- **Low Confidence:** 2\n\n### Google Maps Integration Sources\n\n"
  },
  "bahia-la-pared": {
    "research_data": {
      "spot_id": "bahia-la-pared",
      "spot_name": "Bahia",
      "current_coordinates": {
        "lat": 28.2135,
        "lng": -14.226,
        "accuracy": "unverified"
      },
      "research_file_path": "/Users/frederic/github/lavolcanica/docs/surf-spots-coordinates-research/bahia-la-pared-research.md",
      "correlation_analysis": {
        "status": "correlations_found",
        "total_correlations": 3,
        "high_confidence": 0,
        "medium_confidence": 0,
        "low_confidence": 3,
        "high_confidence_matches": [],
        "proposed_coordinates": null
      },
      "descriptions_from_sources": {},
      "url_data": {},
      "recommendations": []
    },
    "markdown_update": "# Bahia GPS Coordinate Research - Google Maps Integration\n\n**Spot ID:** bahia-la-pared\n**Primary Name:** Bahia\n**Current JSON Coordinates:** 28.2135, -14.226 (unverified)\n\n## Google Maps Integration Analysis\n\n### Correlation Summary\n- **Total Google Maps Matches:** 3\n- **High Confidence:** 0\n- **Medium Confidence:** 0\n- **Low Confidence:** 3\n\n### Google Maps Integration Sources\n\n"
  },
  "bristol-shooting-gallery": {
    "research_data": {
      "spot_id": "bristol-shooting-gallery",
      "spot_name": "Bristol",
      "current_coordinates": {
        "lat": 28.746947975227233,
        "lng": -13.873822689056396,
        "accuracy": "verified"
      },
      "research_file_path": "/Users/frederic/github/lavolcanica/docs/surf-spots-coordinates-research/bristol-shooting-gallery-research.md",
      "correlation_analysis": {
        "status": "correlations_found",
        "total_correlations": 3,
        "high_confidence": 3,
        "medium_confidence": 0,
        "low_confidence": 0,
        "high_confidence_matches": [
          {
            "google_name": "Bristol",
            "google_source": "FreshSurf surfspots aus Fuerteventura",
            "google_lat": 28.7462895,
            "google_lng": -13.8714409,
            "matched_id": "bristol-shooting-gallery",
            "matched_name": "Bristol",
            "existing_lat": 28.746947975227233,
            "existing_lng": -13.873822689056396,
            "distance_km": 0.24347271529614867,
            "confidence": "HIGH",
            "reason": "Exact name match, 0.2km from existing coordinates",
            "score": 100.0
          },
          {
            "google_name": "Bristol",
            "google_source": "Surfspots Fuerteventura Planet Surfcamps",
            "google_lat": 28.7498263,
            "google_lng": -13.8742304,
            "matched_id": "bristol-shooting-gallery",
            "matched_name": "Bristol",
            "existing_lat": 28.746947975227233,
            "existing_lng": -13.873822689056396,
            "distance_km": 0.3225137632265809,
            "confidence": "HIGH",
            "reason": "Exact name match, 0.3km from existing coordinates",
            "score": 100.0
          },
          {
            "google_name": "Bristol",
            "google_source": "surfermap Fuerteventura",
            "google_lat": 28.746947975227233,
            "google_lng": -13.873822689056396,
            "matched_id": "bristol-shooting-gallery",
            "matched_name": "Bristol",
            "existing_lat": 28.746947975227233,
            "existing_lng": -13.873822689056396,
            "distance_km": 0.0,
            "confidence": "HIGH",
            "reason": "Exact name match, 0.0km from existing coordinates",
            "score": 100.0
          }
        ],
        "proposed_coordinates": {
          "lat": 28.74768792507574,
          "lng": -13.873164663018798,
          "variance_meters": 218.4183520360688,
          "confidence": "MEDIUM"
        }
      },
      "descriptions_from_sources": {},
      "url_data": {},
      "recommendations": [
        "REVIEW COORDINATES - high variance (218m) suggests potential spot confusion"
      ]
    },
    "markdown_update": "# Bristol GPS Coordinate Research - Google Maps Integration\n\n**Spot ID:** bristol-shooting-gallery\n**Primary Name:** Bristol\n**Current JSON Coordinates:** 28.746947975227233, -13.873822689056396 (verified)\n\n## Google Maps Integration Analysis\n\n### Correlation Summary\n- **Total Google Maps Matches:** 3\n- **High Confidence:** 3\n- **Medium Confidence:** 0\n- **Low Confidence:** 0\n\n### Coordinate Verification Analysis\n\n**Current JSON Coordinates:** 28.746947975227233, -13.873822689056396\n**Google Maps Proposed:** 28.7476879, -13.8731647\n**Coordinate Variance:** 218.4 meters\n**Confidence Level:** MEDIUM\n\n**Assessment:** REQUIRES REVIEW - high variance suggests potential spot confusion\n\n### Recommendations\n\n1. **REVIEW COORDINATES - high variance (218m) suggests potential spot confusion**\n\n### Google Maps Integration Sources\n\n- FreshSurf surfspots aus Fuerteventura\n- Surfspots Fuerteventura Planet Surfcamps\n- surfermap Fuerteventura\n"
  },
  "the-bubble": {
    "research_data": {
      "spot_id": "the-bubble",
      "spot_name": "The Bubble",
      "current_coordinates": {
        "lat": 28.7410217,
        "lng": -13.9516926,
        "accuracy": "verified"
      },
      "research_file_path": "/Users/frederic/github/lavolcanica/docs/surf-spots-coordinates-research/the-bubble-research.md",
      "correlation_analysis": {
        "status": "correlations_found",
        "total_correlations": 6,
        "high_confidence": 6,
        "medium_confidence": 0,
        "low_confidence": 0,
        "high_confidence_matches": [
          {
            "google_name": "El Hierro",
            "google_source": "FreshSurf surfspots aus Fuerteventura",
            "google_lat": 28.740081,
            "google_lng": -13.9534521,
            "matched_id": "the-bubble",
            "matched_name": "The Bubble",
            "existing_lat": 28.7410217,
            "existing_lng": -13.9516926,
            "distance_km": 0.20092046427160967,
            "confidence": "HIGH",
            "reason": "Exact name match, 0.2km from existing coordinates",
            "score": 100.0
          },
          {
            "google_name": "The Bubble",
            "google_source": "FreshSurf surfspots aus Fuerteventura",
            "google_lat": 28.7410217,
            "google_lng": -13.9516926,
            "matched_id": "the-bubble",
            "matched_name": "The Bubble",
            "existing_lat": 28.7410217,
            "existing_lng": -13.9516926,
            "distance_km": 0.0,
            "confidence": "HIGH",
            "reason": "Exact name match, 0.0km from existing coordinates",
            "score": 100.0
          },
          {
            "google_name": "The Bubble",
            "google_source": "Surf and Unwind surf guide Fuerteventura",
            "google_lat": 28.742951,
            "google_lng": -13.949868,
            "matched_id": "the-bubble",
            "matched_name": "The Bubble",
            "existing_lat": 28.7410217,
            "existing_lng": -13.9516926,
            "distance_km": 0.2786881468507922,
            "confidence": "HIGH",
            "reason": "Exact name match, 0.3km from existing coordinates",
            "score": 100.0
          },
          {
            "google_name": "El Hierro",
            "google_source": "Surfspots Fuerteventura Planet Surfcamps",
            "google_lat": 28.7416802,
            "google_lng": -13.9523578,
            "matched_id": "the-bubble",
            "matched_name": "The Bubble",
            "existing_lat": 28.7410217,
            "existing_lng": -13.9516926,
            "distance_km": 0.09781357213502978,
            "confidence": "HIGH",
            "reason": "Exact name match, 0.1km from existing coordinates",
            "score": 100.0
          },
          {
            "google_name": "The Bubble ",
            "google_source": "Surfspots Fuerteventura Planet Surfcamps",
            "google_lat": 28.7432605,
            "google_lng": -13.9503193,
            "matched_id": "the-bubble",
            "matched_name": "The Bubble",
            "existing_lat": 28.7410217,
            "existing_lng": -13.9516926,
            "distance_km": 0.28266443480508746,
            "confidence": "HIGH",
            "reason": "Exact name match, 0.3km from existing coordinates",
            "score": 100.0
          },
          {
            "google_name": "El Hierro",
            "google_source": "surfermap Fuerteventura",
            "google_lat": 28.738763971370293,
            "google_lng": -13.952443599700928,
            "matched_id": "the-bubble",
            "matched_name": "The Bubble",
            "existing_lat": 28.7410217,
            "existing_lng": -13.9516926,
            "distance_km": 0.2615077116824361,
            "confidence": "HIGH",
            "reason": "Exact name match, 0.3km from existing coordinates",
            "score": 100.0
          }
        ],
        "proposed_coordinates": {
          "lat": 28.74129306189505,
          "lng": -13.951688899950156,
          "variance_meters": 222.11950242006588,
          "confidence": "MEDIUM"
        }
      },
      "descriptions_from_sources": {},
      "url_data": {},
      "recommendations": [
        "REVIEW COORDINATES - high variance (222m) suggests potential spot confusion"
      ]
    },
    "markdown_update": "# The Bubble GPS Coordinate Research - Google Maps Integration\n\n**Spot ID:** the-bubble\n**Primary Name:** The Bubble\n**Current JSON Coordinates:** 28.7410217, -13.9516926 (verified)\n\n## Google Maps Integration Analysis\n\n### Correlation Summary\n- **Total Google Maps Matches:** 6\n- **High Confidence:** 6\n- **Medium Confidence:** 0\n- **Low Confidence:** 0\n\n### Coordinate Verification Analysis\n\n**Current JSON Coordinates:** 28.7410217, -13.9516926\n**Google Maps Proposed:** 28.7412931, -13.9516889\n**Coordinate Variance:** 222.1 meters\n**Confidence Level:** MEDIUM\n\n**Assessment:** REQUIRES REVIEW - high variance suggests potential spot confusion\n\n### Recommendations\n\n1. **REVIEW COORDINATES - high variance (222m) suggests potential spot confusion**\n\n### Google Maps Integration Sources\n\n- FreshSurf surfspots aus Fuerteventura\n- Surf and Unwind surf guide Fuerteventura\n- Surfspots Fuerteventura Planet Surfcamps\n- surfermap Fuerteventura\n"
  },
  "campo-de-futbol": {
    "research_data": {
      "error": "No correlations found for campo-de-futbol"
    },
    "markdown_update": "# Error\n\nNo correlations found for campo-de-futbol"
  },
  "cruz-roja": {
    "research_data": {
      "spot_id": "cruz-roja",
      "spot_name": "Cruz Roja",
      "current_coordinates": {
        "lat": 28.0442,
        "lng": -14.3294,
        "accuracy": "verified"
      },
      "research_file_path": "/Users/frederic/github/lavolcanica/docs/surf-spots-coordinates-research/cruz-roja-research.md",
      "correlation_analysis": {
        "status": "correlations_found",
        "total_correlations": 2,
        "high_confidence": 1,
        "medium_confidence": 0,
        "low_confidence": 1,
        "high_confidence_matches": [
          {
            "google_name": "Cruz Roja",
            "google_source": "surfermap Fuerteventura",
            "google_lat": 28.046653989760127,
            "google_lng": -14.328049421310425,
            "matched_id": "cruz-roja",
            "matched_name": "Cruz Roja",
            "existing_lat": 28.0442,
            "existing_lng": -14.3294,
            "distance_km": 0.3033584077765397,
            "confidence": "HIGH",
            "reason": "Exact name match, 0.3km from existing coordinates",
            "score": 100.0
          }
        ],
        "proposed_coordinates": {
          "lat": 28.046653989760127,
          "lng": -14.328049421310425,
          "variance_meters": 0.0,
          "confidence": "MEDIUM"
        }
      },
      "descriptions_from_sources": {},
      "url_data": {},
      "recommendations": [
        "REVIEW COORDINATES - high variance (0m) suggests potential spot confusion"
      ]
    },
    "markdown_update": "# Cruz Roja GPS Coordinate Research - Google Maps Integration\n\n**Spot ID:** cruz-roja\n**Primary Name:** Cruz Roja\n**Current JSON Coordinates:** 28.0442, -14.3294 (verified)\n\n## Google Maps Integration Analysis\n\n### Correlation Summary\n- **Total Google Maps Matches:** 2\n- **High Confidence:** 1\n- **Medium Confidence:** 0\n- **Low Confidence:** 1\n\n### Coordinate Verification Analysis\n\n**Current JSON Coordinates:** 28.0442, -14.3294\n**Google Maps Proposed:** 28.0466540, -14.3280494\n**Coordinate Variance:** 0.0 meters\n**Confidence Level:** MEDIUM\n\n**Assessment:** EXCELLENT coordinate match - Google Maps validates existing coordinates\n\n### Recommendations\n\n1. **REVIEW COORDINATES - high variance (0m) suggests potential spot confusion**\n\n### Google Maps Integration Sources\n\n- surfermap Fuerteventura\n"
  },
  "el-burro": {
    "research_data": {
      "spot_id": "el-burro",
      "spot_name": "El Burro",
      "current_coordinates": {
        "lat": 28.6871,
        "lng": -13.8208,
        "accuracy": "verified"
      },
      "research_file_path": "/Users/frederic/github/lavolcanica/docs/surf-spots-coordinates-research/el-burro-research.md",
      "correlation_analysis": {
        "status": "correlations_found",
        "total_correlations": 7,
        "high_confidence": 5,
        "medium_confidence": 2,
        "low_confidence": 0,
        "high_confidence_matches": [
          {
            "google_name": "El Burro",
            "google_source": "FreshSurf surfspots aus Fuerteventura",
            "google_lat": 28.6876324,
            "google_lng": -13.8307571,
            "matched_id": "el-burro",
            "matched_name": "El Burro",
            "existing_lat": 28.6871,
            "existing_lng": -13.8208,
            "distance_km": 0.9730775135856868,
            "confidence": "HIGH",
            "reason": "Exact name match, 1.0km from existing coordinates",
            "score": 100.0
          },
          {
            "google_name": "Glass Beach",
            "google_source": "FreshSurf surfspots aus Fuerteventura",
            "google_lat": 28.6846205,
            "google_lng": -13.8320446,
            "matched_id": "el-burro",
            "matched_name": "El Burro",
            "existing_lat": 28.6871,
            "existing_lng": -13.8208,
            "distance_km": 1.1310010069527001,
            "confidence": "HIGH",
            "reason": "Exact name match, 1.1km from existing coordinates",
            "score": 94.0
          },
          {
            "google_name": "El Burro",
            "google_source": "Surfspots Fuerteventura Planet Surfcamps",
            "google_lat": 28.6855806,
            "google_lng": -13.8312078,
            "matched_id": "el-burro",
            "matched_name": "El Burro",
            "existing_lat": 28.6871,
            "existing_lng": -13.8208,
            "distance_km": 1.0292105646702392,
            "confidence": "HIGH",
            "reason": "Exact name match, 1.0km from existing coordinates",
            "score": 94.0
          },
          {
            "google_name": "El Burro",
            "google_source": "surfermap Fuerteventura",
            "google_lat": 28.687335894691245,
            "google_lng": -13.830982446670532,
            "matched_id": "el-burro",
            "matched_name": "El Burro",
            "existing_lat": 28.6871,
            "existing_lng": -13.8208,
            "distance_km": 0.9936043871165733,
            "confidence": "HIGH",
            "reason": "Exact name match, 1.0km from existing coordinates",
            "score": 100.0
          },
          {
            "google_name": "El Burro",
            "google_source": "surfermap Fuerteventura",
            "google_lat": 28.687190010202205,
            "google_lng": -13.831079006195068,
            "matched_id": "el-burro",
            "matched_name": "El Burro",
            "existing_lat": 28.6871,
            "existing_lng": -13.8208,
            "distance_km": 1.0027277549233928,
            "confidence": "HIGH",
            "reason": "Exact name match, 1.0km from existing coordinates",
            "score": 94.0
          }
        ],
        "proposed_coordinates": {
          "lat": 28.68647188097869,
          "lng": -13.831214190573121,
          "variance_meters": 138.65281421140523,
          "confidence": "MEDIUM"
        }
      },
      "descriptions_from_sources": {},
      "url_data": {},
      "recommendations": [
        "REVIEW COORDINATES - high variance (139m) suggests potential spot confusion"
      ]
    },
    "markdown_update": "# El Burro GPS Coordinate Research - Google Maps Integration\n\n**Spot ID:** el-burro\n**Primary Name:** El Burro\n**Current JSON Coordinates:** 28.6871, -13.8208 (verified)\n\n## Google Maps Integration Analysis\n\n### Correlation Summary\n- **Total Google Maps Matches:** 7\n- **High Confidence:** 5\n- **Medium Confidence:** 2\n- **Low Confidence:** 0\n\n### Coordinate Verification Analysis\n\n**Current JSON Coordinates:** 28.6871, -13.8208\n**Google Maps Proposed:** 28.6864719, -13.8312142\n**Coordinate Variance:** 138.7 meters\n**Confidence Level:** MEDIUM\n\n**Assessment:** REQUIRES REVIEW - high variance suggests potential spot confusion\n\n### Recommendations\n\n1. **REVIEW COORDINATES - high variance (139m) suggests potential spot confusion**\n\n### Google Maps Integration Sources\n\n- FreshSurf surfspots aus Fuerteventura\n- Surfspots Fuerteventura Planet Surfcamps\n- surfermap Fuerteventura\n"
  },
  "el-cotillo-piedra-playa": {
    "research_data": {
      "spot_id": "el-cotillo-piedra-playa",
      "spot_name": "El Cotillo",
      "current_coordinates": {
        "lat": 28.6742,
        "lng": -14.0076,
        "accuracy": "unverified"
      },
      "research_file_path": "/Users/frederic/github/lavolcanica/docs/surf-spots-coordinates-research/el-cotillo-piedra-playa-research.md",
      "correlation_analysis": {
        "status": "correlations_found",
        "total_correlations": 10,
        "high_confidence": 8,
        "medium_confidence": 0,
        "low_confidence": 2,
        "high_confidence_matches": [
          {
            "google_name": "Piedra Playa El Cotillo",
            "google_source": "FreshSurf surfspots aus Fuerteventura",
            "google_lat": 28.6734195,
            "google_lng": -14.009285,
            "matched_id": "el-cotillo-piedra-playa",
            "matched_name": "El Cotillo",
            "existing_lat": 28.6742,
            "existing_lng": -14.0076,
            "distance_km": 0.18588956875086918,
            "confidence": "HIGH",
            "reason": "Special mapping applied: cotillo → El Cotillo, 0.2km",
            "score": 90
          },
          {
            "google_name": "Playa Ultima - El Cotillo",
            "google_source": "FreshSurf surfspots aus Fuerteventura",
            "google_lat": 28.6675455,
            "google_lng": -14.0110016,
            "matched_id": "el-cotillo-piedra-playa",
            "matched_name": "El Cotillo",
            "existing_lat": 28.6742,
            "existing_lng": -14.0076,
            "distance_km": 0.8109594133142481,
            "confidence": "HIGH",
            "reason": "Special mapping applied: cotillo → El Cotillo, 0.8km",
            "score": 90
          },
          {
            "google_name": "El Cotillo",
            "google_source": "Surf and Unwind surf guide Fuerteventura",
            "google_lat": 28.673937,
            "google_lng": -14.009591,
            "matched_id": "el-cotillo-piedra-playa",
            "matched_name": "El Cotillo",
            "existing_lat": 28.6742,
            "existing_lng": -14.0076,
            "distance_km": 0.19642784512050307,
            "confidence": "HIGH",
            "reason": "Special mapping applied: piedra playa el cotillo → El Cotillo, 0.2km",
            "score": 90
          },
          {
            "google_name": "Cotillo Beach",
            "google_source": "Surfspots Fuerteventura Planet Surfcamps",
            "google_lat": 28.6748503,
            "google_lng": -14.0105724,
            "matched_id": "el-cotillo-piedra-playa",
            "matched_name": "El Cotillo",
            "existing_lat": 28.6742,
            "existing_lng": -14.0076,
            "distance_km": 0.29886091398933234,
            "confidence": "HIGH",
            "reason": "Special mapping applied: piedra playa el cotillo → El Cotillo, 0.3km",
            "score": 90
          },
          {
            "google_name": "El Cotillo\n",
            "google_source": "Surfspots Fuerteventura Planet Surfcamps",
            "google_lat": 28.6740172,
            "google_lng": -14.0098751,
            "matched_id": "el-cotillo-piedra-playa",
            "matched_name": "El Cotillo",
            "existing_lat": 28.6742,
            "existing_lng": -14.0076,
            "distance_km": 0.22288373682013493,
            "confidence": "HIGH",
            "reason": "Special mapping applied: piedra playa el cotillo → El Cotillo, 0.2km",
            "score": 90
          },
          {
            "google_name": "El Cotillo",
            "google_source": "surfermap Fuerteventura",
            "google_lat": 28.672544055644753,
            "google_lng": -14.009381532669067,
            "matched_id": "el-cotillo-piedra-playa",
            "matched_name": "El Cotillo",
            "existing_lat": 28.6742,
            "existing_lng": -14.0076,
            "distance_km": 0.253205142988654,
            "confidence": "HIGH",
            "reason": "Special mapping applied: piedra playa el cotillo → El Cotillo, 0.3km",
            "score": 90
          },
          {
            "google_name": "El Cotillo",
            "google_source": "surfermap Fuerteventura",
            "google_lat": 28.670294270656978,
            "google_lng": -14.010207653045654,
            "matched_id": "el-cotillo-piedra-playa",
            "matched_name": "El Cotillo",
            "existing_lat": 28.6742,
            "existing_lng": -14.0076,
            "distance_km": 0.503323860374778,
            "confidence": "HIGH",
            "reason": "Special mapping applied: piedra playa el cotillo → El Cotillo, 0.5km",
            "score": 90
          },
          {
            "google_name": "El Cotillo · Piedra Playa",
            "google_source": "surfermap Fuerteventura",
            "google_lat": 28.67437020542724,
            "google_lng": -14.009188413619995,
            "matched_id": "el-cotillo-piedra-playa",
            "matched_name": "El Cotillo",
            "existing_lat": 28.6742,
            "existing_lng": -14.0076,
            "distance_km": 0.15611416929942504,
            "confidence": "HIGH",
            "reason": "Special mapping applied: cotillo → El Cotillo, 0.2km",
            "score": 90
          }
        ],
        "proposed_coordinates": {
          "lat": 28.672622253966118,
          "lng": -14.009887837416839,
          "variance_meters": 267.71835818979235,
          "confidence": "MEDIUM"
        }
      },
      "descriptions_from_sources": {},
      "url_data": {},
      "recommendations": [
        "REVIEW COORDINATES - high variance (268m) suggests potential spot confusion"
      ]
    },
    "markdown_update": "# El Cotillo GPS Coordinate Research - Google Maps Integration\n\n**Spot ID:** el-cotillo-piedra-playa\n**Primary Name:** El Cotillo\n**Current JSON Coordinates:** 28.6742, -14.0076 (unverified)\n\n## Google Maps Integration Analysis\n\n### Correlation Summary\n- **Total Google Maps Matches:** 10\n- **High Confidence:** 8\n- **Medium Confidence:** 0\n- **Low Confidence:** 2\n\n### Coordinate Verification Analysis\n\n**Current JSON Coordinates:** 28.6742, -14.0076\n**Google Maps Proposed:** 28.6726223, -14.0098878\n**Coordinate Variance:** 267.7 meters\n**Confidence Level:** MEDIUM\n\n**Assessment:** REQUIRES REVIEW - high variance suggests potential spot confusion\n\n### Recommendations\n\n1. **REVIEW COORDINATES - high variance (268m) suggests potential spot confusion**\n\n### Google Maps Integration Sources\n\n- FreshSurf surfspots aus Fuerteventura\n- Surf and Unwind surf guide Fuerteventura\n- Surfspots Fuerteventura Planet Surfcamps\n- surfermap Fuerteventura\n"
  },
  "playa-del-moro": {
    "research_data": {
      "spot_id": "playa-del-moro",
      "spot_name": "Playa del Moro",
      "current_coordinates": {
        "lat": 28.6728,
        "lng": -13.8336,
        "accuracy": "verified"
      },
      "research_file_path": "/Users/frederic/github/lavolcanica/docs/surf-spots-coordinates-research/playa-del-moro-research.md",
      "correlation_analysis": {
        "status": "correlations_found",
        "total_correlations": 3,
        "high_confidence": 3,
        "medium_confidence": 0,
        "low_confidence": 0,
        "high_confidence_matches": [
          {
            "google_name": "Playa del Moro",
            "google_source": "FreshSurf surfspots aus Fuerteventura",
            "google_lat": 28.6741537,
            "google_lng": -13.8333964,
            "matched_id": "playa-del-moro",
            "matched_name": "Playa del Moro",
            "existing_lat": 28.6728,
            "existing_lng": -13.8336,
            "distance_km": 0.15182946151704071,
            "confidence": "HIGH",
            "reason": "Exact name match, 0.2km from existing coordinates",
            "score": 100.0
          },
          {
            "google_name": "Playa del Moro",
            "google_source": "Surfspots Fuerteventura Planet Surfcamps",
            "google_lat": 28.6736454,
            "google_lng": -13.8332033,
            "matched_id": "playa-del-moro",
            "matched_name": "Playa del Moro",
            "existing_lat": 28.6728,
            "existing_lng": -13.8336,
            "distance_km": 0.10165928686876215,
            "confidence": "HIGH",
            "reason": "Exact name match, 0.1km from existing coordinates",
            "score": 100.0
          },
          {
            "google_name": "Playa del Moro",
            "google_source": "surfermap Fuerteventura",
            "google_lat": 28.674106639382938,
            "google_lng": -13.833836317062378,
            "matched_id": "playa-del-moro",
            "matched_name": "Playa del Moro",
            "existing_lat": 28.6728,
            "existing_lng": -13.8336,
            "distance_km": 0.14710946654152476,
            "confidence": "HIGH",
            "reason": "Exact name match, 0.1km from existing coordinates",
            "score": 100.0
          }
        ],
        "proposed_coordinates": {
          "lat": 28.673968579794316,
          "lng": -13.833478672354126,
          "variance_meters": 38.891393160079154,
          "confidence": "HIGH"
        }
      },
      "descriptions_from_sources": {},
      "url_data": {},
      "recommendations": [
        "UPDATE COORDINATES to 28.6739686, -13.8334787 (variance: 39m, confidence: HIGH)"
      ]
    },
    "markdown_update": "# Playa del Moro GPS Coordinate Research - Google Maps Integration\n\n**Spot ID:** playa-del-moro\n**Primary Name:** Playa del Moro\n**Current JSON Coordinates:** 28.6728, -13.8336 (verified)\n\n## Google Maps Integration Analysis\n\n### Correlation Summary\n- **Total Google Maps Matches:** 3\n- **High Confidence:** 3\n- **Medium Confidence:** 0\n- **Low Confidence:** 0\n\n### Coordinate Verification Analysis\n\n**Current JSON Coordinates:** 28.6728, -13.8336\n**Google Maps Proposed:** 28.6739686, -13.8334787\n**Coordinate Variance:** 38.9 meters\n**Confidence Level:** HIGH\n\n**Assessment:** EXCELLENT coordinate match - Google Maps validates existing coordinates\n\n### Recommendations\n\n1. **UPDATE COORDINATES to 28.6739686, -13.8334787 (variance: 39m, confidence: HIGH)**\n\n### Google Maps Integration Sources\n\n- FreshSurf surfspots aus Fuerteventura\n- Surfspots Fuerteventura Planet Surfcamps\n- surfermap Fuerteventura\n"
  },
  "el-muelle": {
    "research_data": {
      "spot_id": "el-muelle",
      "spot_name": "El Muelle",
      "current_coordinates": {
        "lat": 28.74248918,
        "lng": -13.86294365,
        "accuracy": "verified"
      },
      "research_file_path": "/Users/frederic/github/lavolcanica/docs/surf-spots-coordinates-research/el-muelle-research.md",
      "correlation_analysis": {
        "status": "correlations_found",
        "total_correlations": 4,
        "high_confidence": 3,
        "medium_confidence": 0,
        "low_confidence": 1,
        "high_confidence_matches": [
          {
            "google_name": "Harbour Wall",
            "google_source": "FreshSurf surfspots aus Fuerteventura",
            "google_lat": 28.7462519,
            "google_lng": -13.8644457,
            "matched_id": "el-muelle",
            "matched_name": "El Muelle",
            "existing_lat": 28.74248918,
            "existing_lng": -13.86294365,
            "distance_km": 0.4432821868818677,
            "confidence": "HIGH",
            "reason": "Exact name match, 0.4km from existing coordinates",
            "score": 100.0
          },
          {
            "google_name": "El Muelle",
            "google_source": "Surfspots Fuerteventura Planet Surfcamps",
            "google_lat": 28.7459133,
            "google_lng": -13.864274,
            "matched_id": "el-muelle",
            "matched_name": "El Muelle",
            "existing_lat": 28.74248918,
            "existing_lng": -13.86294365,
            "distance_km": 0.40222955627557966,
            "confidence": "HIGH",
            "reason": "Exact name match, 0.4km from existing coordinates",
            "score": 100.0
          },
          {
            "google_name": "El Muelle",
            "google_source": "surfermap Fuerteventura",
            "google_lat": 28.746063757429248,
            "google_lng": -13.866323232650757,
            "matched_id": "el-muelle",
            "matched_name": "El Muelle",
            "existing_lat": 28.74248918,
            "existing_lng": -13.86294365,
            "distance_km": 0.5162817730042587,
            "confidence": "HIGH",
            "reason": "Exact name match, 0.5km from existing coordinates",
            "score": 100.0
          }
        ],
        "proposed_coordinates": {
          "lat": 28.746076319143082,
          "lng": -13.865014310883586,
          "variance_meters": 104.17093064345593,
          "confidence": "MEDIUM"
        }
      },
      "descriptions_from_sources": {},
      "url_data": {},
      "recommendations": [
        "REVIEW COORDINATES - high variance (104m) suggests potential spot confusion"
      ]
    },
    "markdown_update": "# El Muelle GPS Coordinate Research - Google Maps Integration\n\n**Spot ID:** el-muelle\n**Primary Name:** El Muelle\n**Current JSON Coordinates:** 28.74248918, -13.86294365 (verified)\n\n## Google Maps Integration Analysis\n\n### Correlation Summary\n- **Total Google Maps Matches:** 4\n- **High Confidence:** 3\n- **Medium Confidence:** 0\n- **Low Confidence:** 1\n\n### Coordinate Verification Analysis\n\n**Current JSON Coordinates:** 28.74248918, -13.86294365\n**Google Maps Proposed:** 28.7460763, -13.8650143\n**Coordinate Variance:** 104.2 meters\n**Confidence Level:** MEDIUM\n\n**Assessment:** REQUIRES REVIEW - high variance suggests potential spot confusion\n\n### Recommendations\n\n1. **REVIEW COORDINATES - high variance (104m) suggests potential spot confusion**\n\n### Google Maps Integration Sources\n\n- FreshSurf surfspots aus Fuerteventura\n- Surfspots Fuerteventura Planet Surfcamps\n- surfermap Fuerteventura\n"
  },
  "el-pozo": {
    "research_data": {
      "error": "No correlations found for el-pozo"
    },
    "markdown_update": "# Error\n\nNo correlations found for el-pozo"
  },
  "spew-pits": {
    "research_data": {
      "spot_id": "spew-pits",
      "spot_name": "Spew Pits",
      "current_coordinates": {
        "lat": 28.68,
        "lng": -14.01,
        "accuracy": "unverified"
      },
      "research_file_path": "/Users/frederic/github/lavolcanica/docs/surf-spots-coordinates-research/spew-pits-research.md",
      "correlation_analysis": {
        "status": "correlations_found",
        "total_correlations": 1,
        "high_confidence": 1,
        "medium_confidence": 0,
        "low_confidence": 0,
        "high_confidence_matches": [
          {
            "google_name": "El Puertito",
            "google_source": "surfermap Fuerteventura",
            "google_lat": 28.685571149327313,
            "google_lng": -14.0138179063797,
            "matched_id": "spew-pits",
            "matched_name": "Spew Pits",
            "existing_lat": 28.68,
            "existing_lng": -14.01,
            "distance_km": 0.722820650010577,
            "confidence": "HIGH",
            "reason": "Exact name match, 0.7km from existing coordinates",
            "score": 100.0
          }
        ],
        "proposed_coordinates": {
          "lat": 28.685571149327313,
          "lng": -14.0138179063797,
          "variance_meters": 0.0,
          "confidence": "MEDIUM"
        }
      },
      "descriptions_from_sources": {},
      "url_data": {},
      "recommendations": [
        "REVIEW COORDINATES - high variance (0m) suggests potential spot confusion"
      ]
    },
    "markdown_update": "# Spew Pits GPS Coordinate Research - Google Maps Integration\n\n**Spot ID:** spew-pits\n**Primary Name:** Spew Pits\n**Current JSON Coordinates:** 28.68, -14.01 (unverified)\n\n## Google Maps Integration Analysis\n\n### Correlation Summary\n- **Total Google Maps Matches:** 1\n- **High Confidence:** 1\n- **Medium Confidence:** 0\n- **Low Confidence:** 0\n\n### Coordinate Verification Analysis\n\n**Current JSON Coordinates:** 28.68, -14.01\n**Google Maps Proposed:** 28.6855711, -14.0138179\n**Coordinate Variance:** 0.0 meters\n**Confidence Level:** MEDIUM\n\n**Assessment:** EXCELLENT coordinate match - Google Maps validates existing coordinates\n\n### Recommendations\n\n1. **REVIEW COORDINATES - high variance (0m) suggests potential spot confusion**\n\n### Google Maps Integration Sources\n\n- surfermap Fuerteventura\n"
  },
  "esquinzo-jandia": {
    "research_data": {
      "spot_id": "esquinzo-jandia",
      "spot_name": "Esquinzo (Jandía)",
      "current_coordinates": {
        "lat": 28.0714,
        "lng": -14.304,
        "accuracy": "verified"
      },
      "research_file_path": "/Users/frederic/github/lavolcanica/docs/surf-spots-coordinates-research/esquinzo-jandia-research.md",
      "correlation_analysis": {
        "status": "correlations_found",
        "total_correlations": 4,
        "high_confidence": 0,
        "medium_confidence": 2,
        "low_confidence": 2,
        "high_confidence_matches": [],
        "proposed_coordinates": null
      },
      "descriptions_from_sources": {},
      "url_data": {},
      "recommendations": []
    },
    "markdown_update": "# Esquinzo (Jandía) GPS Coordinate Research - Google Maps Integration\n\n**Spot ID:** esquinzo-jandia\n**Primary Name:** Esquinzo (Jandía)\n**Current JSON Coordinates:** 28.0714, -14.304 (verified)\n\n## Google Maps Integration Analysis\n\n### Correlation Summary\n- **Total Google Maps Matches:** 4\n- **High Confidence:** 0\n- **Medium Confidence:** 2\n- **Low Confidence:** 2\n\n### Google Maps Integration Sources\n\n"
  },
  "esquinzo": {
    "research_data": {
      "error": "No correlations found for esquinzo"
    },
    "markdown_update": "# Error\n\nNo correlations found for esquinzo"
  },
  "flag-beach": {
    "research_data": {
      "spot_id": "flag-beach",
      "spot_name": "Flag Beach",
      "current_coordinates": {
        "lat": 28.7125,
        "lng": -13.8423,
        "accuracy": "verified"
      },
      "research_file_path": "/Users/frederic/github/lavolcanica/docs/surf-spots-coordinates-research/flag-beach-research.md",
      "correlation_analysis": {
        "status": "correlations_found",
        "total_correlations": 7,
        "high_confidence": 6,
        "medium_confidence": 1,
        "low_confidence": 0,
        "high_confidence_matches": [
          {
            "google_name": "Flag Beach",
            "google_source": "Surf and Unwind surf guide Fuerteventura",
            "google_lat": 28.720515,
            "google_lng": -13.840599,
            "matched_id": "flag-beach",
            "matched_name": "Flag Beach",
            "existing_lat": 28.7125,
            "existing_lng": -13.8423,
            "distance_km": 0.9065330528921527,
            "confidence": "HIGH",
            "reason": "Exact name match, 0.9km from existing coordinates",
            "score": 100.0
          },
          {
            "google_name": "Flag Beach",
            "google_source": "Surfspots Fuerteventura Planet Surfcamps",
            "google_lat": 28.7185928,
            "google_lng": -13.8387179,
            "matched_id": "flag-beach",
            "matched_name": "Flag Beach",
            "existing_lat": 28.7125,
            "existing_lng": -13.8423,
            "distance_km": 0.7622458939548623,
            "confidence": "HIGH",
            "reason": "Exact name match, 0.8km from existing coordinates",
            "score": 100.0
          },
          {
            "google_name": "Flag Beach",
            "google_source": "Surfspots Fuerteventura Planet Surfcamps",
            "google_lat": 28.7203806,
            "google_lng": -13.839469,
            "matched_id": "flag-beach",
            "matched_name": "Flag Beach",
            "existing_lat": 28.7125,
            "existing_lng": -13.8423,
            "distance_km": 0.9187433612608938,
            "confidence": "HIGH",
            "reason": "Exact name match, 0.9km from existing coordinates",
            "score": 100.0
          },
          {
            "google_name": "Flag Beach",
            "google_source": "Surfspots Fuerteventura Planet Surfcamps",
            "google_lat": 28.7204746,
            "google_lng": -13.8407993,
            "matched_id": "flag-beach",
            "matched_name": "Flag Beach",
            "existing_lat": 28.7125,
            "existing_lng": -13.8423,
            "distance_km": 0.8987304223944702,
            "confidence": "HIGH",
            "reason": "Exact name match, 0.9km from existing coordinates",
            "score": 100.0
          },
          {
            "google_name": "Flag Beach",
            "google_source": "surfermap Fuerteventura",
            "google_lat": 28.722318770564993,
            "google_lng": -13.842215538024902,
            "matched_id": "flag-beach",
            "matched_name": "Flag Beach",
            "existing_lat": 28.7125,
            "existing_lng": -13.8423,
            "distance_km": 1.0918285407314456,
            "confidence": "HIGH",
            "reason": "Exact name match, 1.1km from existing coordinates",
            "score": 94.0
          },
          {
            "google_name": "Flag Beach",
            "google_source": "surfermap Fuerteventura",
            "google_lat": 28.721340256018088,
            "google_lng": -13.842000961303711,
            "matched_id": "flag-beach",
            "matched_name": "Flag Beach",
            "existing_lat": 28.7125,
            "existing_lng": -13.8423,
            "distance_km": 0.9834240863230496,
            "confidence": "HIGH",
            "reason": "Exact name match, 1.0km from existing coordinates",
            "score": 100.0
          }
        ],
        "proposed_coordinates": {
          "lat": 28.72060367109718,
          "lng": -13.840633616554769,
          "variance_meters": 187.0005048785509,
          "confidence": "MEDIUM"
        }
      },
      "descriptions_from_sources": {},
      "url_data": {},
      "recommendations": [
        "REVIEW COORDINATES - high variance (187m) suggests potential spot confusion"
      ]
    },
    "markdown_update": "# Flag Beach GPS Coordinate Research - Google Maps Integration\n\n**Spot ID:** flag-beach\n**Primary Name:** Flag Beach\n**Current JSON Coordinates:** 28.7125, -13.8423 (verified)\n\n## Google Maps Integration Analysis\n\n### Correlation Summary\n- **Total Google Maps Matches:** 7\n- **High Confidence:** 6\n- **Medium Confidence:** 1\n- **Low Confidence:** 0\n\n### Coordinate Verification Analysis\n\n**Current JSON Coordinates:** 28.7125, -13.8423\n**Google Maps Proposed:** 28.7206037, -13.8406336\n**Coordinate Variance:** 187.0 meters\n**Confidence Level:** MEDIUM\n\n**Assessment:** REQUIRES REVIEW - high variance suggests potential spot confusion\n\n### Recommendations\n\n1. **REVIEW COORDINATES - high variance (187m) suggests potential spot confusion**\n\n### Google Maps Integration Sources\n\n- Surf and Unwind surf guide Fuerteventura\n- Surfspots Fuerteventura Planet Surfcamps\n- surfermap Fuerteventura\n"
  },
  "generoso": {
    "research_data": {
      "spot_id": "generoso",
      "spot_name": "Generoso",
      "current_coordinates": {
        "lat": 28.756348,
        "lng": -13.882551,
        "accuracy": "verified"
      },
      "research_file_path": "/Users/frederic/github/lavolcanica/docs/surf-spots-coordinates-research/generoso-research.md",
      "correlation_analysis": {
        "status": "correlations_found",
        "total_correlations": 2,
        "high_confidence": 2,
        "medium_confidence": 0,
        "low_confidence": 0,
        "high_confidence_matches": [
          {
            "google_name": "Generoso",
            "google_source": "FreshSurf surfspots aus Fuerteventura",
            "google_lat": 28.7563353,
            "google_lng": -13.8847876,
            "matched_id": "generoso",
            "matched_name": "Generoso",
            "existing_lat": 28.756348,
            "existing_lng": -13.882551,
            "distance_km": 0.21803202498233312,
            "confidence": "HIGH",
            "reason": "Exact name match, 0.2km from existing coordinates",
            "score": 100.0
          },
          {
            "google_name": "Generoso",
            "google_source": "surfermap Fuerteventura",
            "google_lat": 28.755215990012708,
            "google_lng": -13.88598918914795,
            "matched_id": "generoso",
            "matched_name": "Generoso",
            "existing_lat": 28.756348,
            "existing_lng": -13.882551,
            "distance_km": 0.35801936208890717,
            "confidence": "HIGH",
            "reason": "Exact name match, 0.4km from existing coordinates",
            "score": 100.0
          }
        ],
        "proposed_coordinates": {
          "lat": 28.755775645006352,
          "lng": -13.885388394573974,
          "variance_meters": 91.13957350377356,
          "confidence": "HIGH"
        }
      },
      "descriptions_from_sources": {},
      "url_data": {},
      "recommendations": [
        "UPDATE COORDINATES to 28.7557756, -13.8853884 (variance: 91m, confidence: HIGH)"
      ]
    },
    "markdown_update": "# Generoso GPS Coordinate Research - Google Maps Integration\n\n**Spot ID:** generoso\n**Primary Name:** Generoso\n**Current JSON Coordinates:** 28.756348, -13.882551 (verified)\n\n## Google Maps Integration Analysis\n\n### Correlation Summary\n- **Total Google Maps Matches:** 2\n- **High Confidence:** 2\n- **Medium Confidence:** 0\n- **Low Confidence:** 0\n\n### Coordinate Verification Analysis\n\n**Current JSON Coordinates:** 28.756348, -13.882551\n**Google Maps Proposed:** 28.7557756, -13.8853884\n**Coordinate Variance:** 91.1 meters\n**Confidence Level:** HIGH\n\n**Assessment:** GOOD coordinate match - minor adjustment recommended\n\n### Recommendations\n\n1. **UPDATE COORDINATES to 28.7557756, -13.8853884 (variance: 91m, confidence: HIGH)**\n\n### Google Maps Integration Sources\n\n- FreshSurf surfspots aus Fuerteventura\n- surfermap Fuerteventura\n"
  },
  "cofete-graveyard": {
    "research_data": {
      "spot_id": "cofete-graveyard",
      "spot_name": "Cofete",
      "current_coordinates": {
        "lat": 28.374,
        "lng": -14.202,
        "accuracy": "verified"
      },
      "research_file_path": "/Users/frederic/github/lavolcanica/docs/surf-spots-coordinates-research/cofete-graveyard-research.md",
      "correlation_analysis": {
        "status": "correlations_found",
        "total_correlations": 1,
        "high_confidence": 0,
        "medium_confidence": 1,
        "low_confidence": 0,
        "high_confidence_matches": [],
        "proposed_coordinates": null
      },
      "descriptions_from_sources": {},
      "url_data": {},
      "recommendations": []
    },
    "markdown_update": "# Cofete GPS Coordinate Research - Google Maps Integration\n\n**Spot ID:** cofete-graveyard\n**Primary Name:** Cofete\n**Current JSON Coordinates:** 28.374, -14.202 (verified)\n\n## Google Maps Integration Analysis\n\n### Correlation Summary\n- **Total Google Maps Matches:** 1\n- **High Confidence:** 0\n- **Medium Confidence:** 1\n- **Low Confidence:** 0\n\n### Google Maps Integration Sources\n\n"
  },
  "la-caleta-boneyard": {
    "research_data": {
      "spot_id": "la-caleta-boneyard",
      "spot_name": "La Caleta",
      "current_coordinates": {
        "lat": 28.6742,
        "lng": -14.0076,
        "accuracy": "unverified"
      },
      "research_file_path": "/Users/frederic/github/lavolcanica/docs/surf-spots-coordinates-research/la-caleta-boneyard-research.md",
      "correlation_analysis": {
        "status": "correlations_found",
        "total_correlations": 3,
        "high_confidence": 0,
        "medium_confidence": 3,
        "low_confidence": 0,
        "high_confidence_matches": [],
        "proposed_coordinates": null
      },
      "descriptions_from_sources": {},
      "url_data": {},
      "recommendations": []
    },
    "markdown_update": "# La Caleta GPS Coordinate Research - Google Maps Integration\n\n**Spot ID:** la-caleta-boneyard\n**Primary Name:** La Caleta\n**Current JSON Coordinates:** 28.6742, -14.0076 (unverified)\n\n## Google Maps Integration Analysis\n\n### Correlation Summary\n- **Total Google Maps Matches:** 3\n- **High Confidence:** 0\n- **Medium Confidence:** 3\n- **Low Confidence:** 0\n\n### Google Maps Integration Sources\n\n"
  },
  "la-concava": {
    "research_data": {
      "spot_id": "la-concava",
      "spot_name": "La Concava",
      "current_coordinates": {
        "lat": 28.7415,
        "lng": -13.9353,
        "accuracy": "unverified"
      },
      "research_file_path": "/Users/frederic/github/lavolcanica/docs/surf-spots-coordinates-research/la-concava-research.md",
      "correlation_analysis": {
        "status": "correlations_found",
        "total_correlations": 2,
        "high_confidence": 0,
        "medium_confidence": 2,
        "low_confidence": 0,
        "high_confidence_matches": [],
        "proposed_coordinates": null
      },
      "descriptions_from_sources": {},
      "url_data": {},
      "recommendations": []
    },
    "markdown_update": "# La Concava GPS Coordinate Research - Google Maps Integration\n\n**Spot ID:** la-concava\n**Primary Name:** La Concava\n**Current JSON Coordinates:** 28.7415, -13.9353 (unverified)\n\n## Google Maps Integration Analysis\n\n### Correlation Summary\n- **Total Google Maps Matches:** 2\n- **High Confidence:** 0\n- **Medium Confidence:** 2\n- **Low Confidence:** 0\n\n### Google Maps Integration Sources\n\n"
  },
  "la-derecha-de-los-alemanes": {
    "research_data": {
      "spot_id": "la-derecha-de-los-alemanes",
      "spot_name": "La Derecha de los Alemanes",
      "current_coordinates": {
        "lat": 28.73923433,
        "lng": -13.95529747,
        "accuracy": "verified"
      },
      "research_file_path": "/Users/frederic/github/lavolcanica/docs/surf-spots-coordinates-research/la-derecha-de-los-alemanes-research.md",
      "correlation_analysis": {
        "status": "correlations_found",
        "total_correlations": 3,
        "high_confidence": 3,
        "medium_confidence": 0,
        "low_confidence": 0,
        "high_confidence_matches": [
          {
            "google_name": "La Derecha de los Alemanes",
            "google_source": "FreshSurf surfspots aus Fuerteventura",
            "google_lat": 28.7395166,
            "google_lng": -13.9551687,
            "matched_id": "la-derecha-de-los-alemanes",
            "matched_name": "La Derecha de los Alemanes",
            "existing_lat": 28.73923433,
            "existing_lng": -13.95529747,
            "distance_km": 0.033804807850603365,
            "confidence": "HIGH",
            "reason": "Exact name match, 0.0km from existing coordinates",
            "score": 100.0
          },
          {
            "google_name": "Derecha de los Alemanes",
            "google_source": "Surfspots Fuerteventura Planet Surfcamps",
            "google_lat": 28.7389333,
            "google_lng": -13.9555764,
            "matched_id": "la-derecha-de-los-alemanes",
            "matched_name": "La Derecha de los Alemanes",
            "existing_lat": 28.73923433,
            "existing_lng": -13.95529747,
            "distance_km": 0.04312786803302346,
            "confidence": "HIGH",
            "reason": "Exact name match, 0.0km from existing coordinates",
            "score": 100.0
          },
          {
            "google_name": "La Derecha de los Alemanes",
            "google_source": "surfermap Fuerteventura",
            "google_lat": 28.738049016446457,
            "google_lng": -13.953602313995361,
            "matched_id": "la-derecha-de-los-alemanes",
            "matched_name": "La Derecha de los Alemanes",
            "existing_lat": 28.73923433,
            "existing_lng": -13.95529747,
            "distance_km": 0.21139337743928188,
            "confidence": "HIGH",
            "reason": "Exact name match, 0.2km from existing coordinates",
            "score": 100.0
          }
        ],
        "proposed_coordinates": {
          "lat": 28.738832972148817,
          "lng": -13.954782471331788,
          "variance_meters": 115.78575087035209,
          "confidence": "MEDIUM"
        }
      },
      "descriptions_from_sources": {},
      "url_data": {},
      "recommendations": [
        "REVIEW COORDINATES - high variance (116m) suggests potential spot confusion"
      ]
    },
    "markdown_update": "# La Derecha de los Alemanes GPS Coordinate Research - Google Maps Integration\n\n**Spot ID:** la-derecha-de-los-alemanes\n**Primary Name:** La Derecha de los Alemanes\n**Current JSON Coordinates:** 28.73923433, -13.95529747 (verified)\n\n## Google Maps Integration Analysis\n\n### Correlation Summary\n- **Total Google Maps Matches:** 3\n- **High Confidence:** 3\n- **Medium Confidence:** 0\n- **Low Confidence:** 0\n\n### Coordinate Verification Analysis\n\n**Current JSON Coordinates:** 28.73923433, -13.95529747\n**Google Maps Proposed:** 28.7388330, -13.9547825\n**Coordinate Variance:** 115.8 meters\n**Confidence Level:** MEDIUM\n\n**Assessment:** REQUIRES REVIEW - high variance suggests potential spot confusion\n\n### Recommendations\n\n1. **REVIEW COORDINATES - high variance (116m) suggests potential spot confusion**\n\n### Google Maps Integration Sources\n\n- FreshSurf surfspots aus Fuerteventura\n- Surfspots Fuerteventura Planet Surfcamps\n- surfermap Fuerteventura\n"
  },
  "la-entubadera": {
    "research_data": {
      "spot_id": "la-entubadera",
      "spot_name": "La Entubadera",
      "current_coordinates": {
        "lat": 28.7155,
        "lng": -13.8464,
        "accuracy": "verified"
      },
      "research_file_path": "/Users/frederic/github/lavolcanica/docs/surf-spots-coordinates-research/la-entubadera-research.md",
      "correlation_analysis": {
        "status": "correlations_found",
        "total_correlations": 4,
        "high_confidence": 4,
        "medium_confidence": 0,
        "low_confidence": 0,
        "high_confidence_matches": [
          {
            "google_name": "La Entubadera",
            "google_source": "FreshSurf surfspots aus Fuerteventura",
            "google_lat": 28.7166922,
            "google_lng": -13.8379455,
            "matched_id": "la-entubadera",
            "matched_name": "La Entubadera",
            "existing_lat": 28.7155,
            "existing_lng": -13.8464,
            "distance_km": 0.8350656724239023,
            "confidence": "HIGH",
            "reason": "Exact name match, 0.8km from existing coordinates",
            "score": 100.0
          },
          {
            "google_name": "Entubadera",
            "google_source": "Surfspots Fuerteventura Planet Surfcamps",
            "google_lat": 28.7161464,
            "google_lng": -13.8382673,
            "matched_id": "la-entubadera",
            "matched_name": "La Entubadera",
            "existing_lat": 28.7155,
            "existing_lng": -13.8464,
            "distance_km": 0.7963467842930597,
            "confidence": "HIGH",
            "reason": "Exact name match, 0.8km from existing coordinates",
            "score": 100.0
          },
          {
            "google_name": "La Entubadera",
            "google_source": "surfermap Fuerteventura",
            "google_lat": 28.71674864238865,
            "google_lng": -13.839383125305176,
            "matched_id": "la-entubadera",
            "matched_name": "La Entubadera",
            "existing_lat": 28.7155,
            "existing_lng": -13.8464,
            "distance_km": 0.6982235695835406,
            "confidence": "HIGH",
            "reason": "Exact name match, 0.7km from existing coordinates",
            "score": 100.0
          },
          {
            "google_name": "La Entubadera",
            "google_source": "surfermap Fuerteventura",
            "google_lat": 28.717576653189195,
            "google_lng": -13.83976936340332,
            "matched_id": "la-entubadera",
            "matched_name": "La Entubadera",
            "existing_lat": 28.7155,
            "existing_lng": -13.8464,
            "distance_km": 0.6866058202746284,
            "confidence": "HIGH",
            "reason": "Exact name match, 0.7km from existing coordinates",
            "score": 100.0
          }
        ],
        "proposed_coordinates": {
          "lat": 28.71679097389446,
          "lng": -13.838841322177124,
          "variance_meters": 101.2951127652202,
          "confidence": "MEDIUM"
        }
      },
      "descriptions_from_sources": {},
      "url_data": {},
      "recommendations": [
        "REVIEW COORDINATES - high variance (101m) suggests potential spot confusion"
      ]
    },
    "markdown_update": "# La Entubadera GPS Coordinate Research - Google Maps Integration\n\n**Spot ID:** la-entubadera\n**Primary Name:** La Entubadera\n**Current JSON Coordinates:** 28.7155, -13.8464 (verified)\n\n## Google Maps Integration Analysis\n\n### Correlation Summary\n- **Total Google Maps Matches:** 4\n- **High Confidence:** 4\n- **Medium Confidence:** 0\n- **Low Confidence:** 0\n\n### Coordinate Verification Analysis\n\n**Current JSON Coordinates:** 28.7155, -13.8464\n**Google Maps Proposed:** 28.7167910, -13.8388413\n**Coordinate Variance:** 101.3 meters\n**Confidence Level:** MEDIUM\n\n**Assessment:** REQUIRES REVIEW - high variance suggests potential spot confusion\n\n### Recommendations\n\n1. **REVIEW COORDINATES - high variance (101m) suggests potential spot confusion**\n\n### Google Maps Integration Sources\n\n- FreshSurf surfspots aus Fuerteventura\n- Surfspots Fuerteventura Planet Surfcamps\n- surfermap Fuerteventura\n"
  },
  "la-escalera": {
    "research_data": {
      "spot_id": "la-escalera",
      "spot_name": "La Escalera",
      "current_coordinates": {
        "lat": 28.687,
        "lng": -13.83,
        "accuracy": "unverified"
      },
      "research_file_path": "/Users/frederic/github/lavolcanica/docs/surf-spots-coordinates-research/la-escalera-research.md",
      "correlation_analysis": {
        "status": "correlations_found",
        "total_correlations": 1,
        "high_confidence": 0,
        "medium_confidence": 1,
        "low_confidence": 0,
        "high_confidence_matches": [],
        "proposed_coordinates": null
      },
      "descriptions_from_sources": {},
      "url_data": {},
      "recommendations": []
    },
    "markdown_update": "# La Escalera GPS Coordinate Research - Google Maps Integration\n\n**Spot ID:** la-escalera\n**Primary Name:** La Escalera\n**Current JSON Coordinates:** 28.687, -13.83 (unverified)\n\n## Google Maps Integration Analysis\n\n### Correlation Summary\n- **Total Google Maps Matches:** 1\n- **High Confidence:** 0\n- **Medium Confidence:** 1\n- **Low Confidence:** 0\n\n### Google Maps Integration Sources\n\n"
  },
  "la-izquierda-del-hierro": {
    "research_data": {
      "spot_id": "la-izquierda-del-hierro",
      "spot_name": "La Izquierda del Hierro",
      "current_coordinates": {
        "lat": 28.7415,
        "lng": -13.9353,
        "accuracy": "unverified"
      },
      "research_file_path": "/Users/frederic/github/lavolcanica/docs/surf-spots-coordinates-research/la-izquierda-del-hierro-research.md",
      "correlation_analysis": {
        "status": "correlations_found",
        "total_correlations": 2,
        "high_confidence": 2,
        "medium_confidence": 0,
        "low_confidence": 0,
        "high_confidence_matches": [
          {
            "google_name": "El Hiero",
            "google_source": "Surf and Unwind surf guide Fuerteventura",
            "google_lat": 28.741798,
            "google_lng": -13.951681,
            "matched_id": "la-izquierda-del-hierro",
            "matched_name": "La Izquierda del Hierro",
            "existing_lat": 28.7415,
            "existing_lng": -13.9353,
            "distance_km": 1.597415234486477,
            "confidence": "HIGH",
            "reason": "Special mapping applied: el hiero → La Izquierda del Hierro, 1.6km",
            "score": 90
          },
          {
            "google_name": "La Izquierda",
            "google_source": "surfermap Fuerteventura",
            "google_lat": 28.740363194936684,
            "google_lng": -13.950973749160767,
            "matched_id": "la-izquierda-del-hierro",
            "matched_name": "La Izquierda del Hierro",
            "existing_lat": 28.7415,
            "existing_lng": -13.9353,
            "distance_km": 1.533347620252229,
            "confidence": "HIGH",
            "reason": "Exact name match, 1.5km from existing coordinates",
            "score": 94.0
          }
        ],
        "proposed_coordinates": {
          "lat": 28.74108059746834,
          "lng": -13.951327374580384,
          "variance_meters": 88.78038759102255,
          "confidence": "HIGH"
        }
      },
      "descriptions_from_sources": {},
      "url_data": {},
      "recommendations": [
        "UPDATE COORDINATES to 28.7410806, -13.9513274 (variance: 89m, confidence: HIGH)"
      ]
    },
    "markdown_update": "# La Izquierda del Hierro GPS Coordinate Research - Google Maps Integration\n\n**Spot ID:** la-izquierda-del-hierro\n**Primary Name:** La Izquierda del Hierro\n**Current JSON Coordinates:** 28.7415, -13.9353 (unverified)\n\n## Google Maps Integration Analysis\n\n### Correlation Summary\n- **Total Google Maps Matches:** 2\n- **High Confidence:** 2\n- **Medium Confidence:** 0\n- **Low Confidence:** 0\n\n### Coordinate Verification Analysis\n\n**Current JSON Coordinates:** 28.7415, -13.9353\n**Google Maps Proposed:** 28.7410806, -13.9513274\n**Coordinate Variance:** 88.8 meters\n**Confidence Level:** HIGH\n\n**Assessment:** GOOD coordinate match - minor adjustment recommended\n\n### Recommendations\n\n1. **UPDATE COORDINATES to 28.7410806, -13.9513274 (variance: 89m, confidence: HIGH)**\n\n### Google Maps Integration Sources\n\n- Surf and Unwind surf guide Fuerteventura\n- surfermap Fuerteventura\n"
  },
  "la-pared": {
    "research_data": {
      "spot_id": "la-pared",
      "spot_name": "La Pared",
      "current_coordinates": {
        "lat": 28.213524,
        "lng": -14.226007,
        "accuracy": "verified"
      },
      "research_file_path": "/Users/frederic/github/lavolcanica/docs/surf-spots-coordinates-research/la-pared-research.md",
      "correlation_analysis": {
        "status": "correlations_found",
        "total_correlations": 1,
        "high_confidence": 1,
        "medium_confidence": 0,
        "low_confidence": 0,
        "high_confidence_matches": [
          {
            "google_name": "La Pared",
            "google_source": "surfermap Fuerteventura",
            "google_lat": 28.214654468351718,
            "google_lng": -14.222965836524963,
            "matched_id": "la-pared",
            "matched_name": "La Pared",
            "existing_lat": 28.213524,
            "existing_lng": -14.226007,
            "distance_km": 0.32341233368237965,
            "confidence": "HIGH",
            "reason": "Exact name match, 0.3km from existing coordinates",
            "score": 100.0
          }
        ],
        "proposed_coordinates": {
          "lat": 28.214654468351718,
          "lng": -14.222965836524963,
          "variance_meters": 0.0,
          "confidence": "MEDIUM"
        }
      },
      "descriptions_from_sources": {},
      "url_data": {},
      "recommendations": [
        "REVIEW COORDINATES - high variance (0m) suggests potential spot confusion"
      ]
    },
    "markdown_update": "# La Pared GPS Coordinate Research - Google Maps Integration\n\n**Spot ID:** la-pared\n**Primary Name:** La Pared\n**Current JSON Coordinates:** 28.213524, -14.226007 (verified)\n\n## Google Maps Integration Analysis\n\n### Correlation Summary\n- **Total Google Maps Matches:** 1\n- **High Confidence:** 1\n- **Medium Confidence:** 0\n- **Low Confidence:** 0\n\n### Coordinate Verification Analysis\n\n**Current JSON Coordinates:** 28.213524, -14.226007\n**Google Maps Proposed:** 28.2146545, -14.2229658\n**Coordinate Variance:** 0.0 meters\n**Confidence Level:** MEDIUM\n\n**Assessment:** EXCELLENT coordinate match - Google Maps validates existing coordinates\n\n### Recommendations\n\n1. **REVIEW COORDINATES - high variance (0m) suggests potential spot confusion**\n\n### Google Maps Integration Sources\n\n- surfermap Fuerteventura\n"
  },
  "la-turbia": {
    "research_data": {
      "error": "No correlations found for la-turbia"
    },
    "markdown_update": "# Error\n\nNo correlations found for la-turbia"
  },
  "playa-de-las-mujeres-jarugo": {
    "research_data": {
      "spot_id": "playa-de-las-mujeres-jarugo",
      "spot_name": "Playa de las Mujeres",
      "current_coordinates": {
        "lat": 28.57758,
        "lng": -14.043362,
        "accuracy": "verified"
      },
      "research_file_path": "/Users/frederic/github/lavolcanica/docs/surf-spots-coordinates-research/playa-de-las-mujeres-jarugo-research.md",
      "correlation_analysis": {
        "status": "correlations_found",
        "total_correlations": 2,
        "high_confidence": 1,
        "medium_confidence": 1,
        "low_confidence": 0,
        "high_confidence_matches": [
          {
            "google_name": "Playa de Jarugo",
            "google_source": "surfermap Fuerteventura",
            "google_lat": 28.571255942335103,
            "google_lng": -14.048396944999695,
            "matched_id": "playa-de-las-mujeres-jarugo",
            "matched_name": "Playa de las Mujeres",
            "existing_lat": 28.57758,
            "existing_lng": -14.043362,
            "distance_km": 0.8580393510749149,
            "confidence": "HIGH",
            "reason": "Exact name match, 0.9km from existing coordinates",
            "score": 100.0
          }
        ],
        "proposed_coordinates": {
          "lat": 28.571255942335103,
          "lng": -14.048396944999695,
          "variance_meters": 0.0,
          "confidence": "MEDIUM"
        }
      },
      "descriptions_from_sources": {},
      "url_data": {},
      "recommendations": [
        "REVIEW COORDINATES - high variance (0m) suggests potential spot confusion"
      ]
    },
    "markdown_update": "# Playa de las Mujeres GPS Coordinate Research - Google Maps Integration\n\n**Spot ID:** playa-de-las-mujeres-jarugo\n**Primary Name:** Playa de las Mujeres\n**Current JSON Coordinates:** 28.57758, -14.043362 (verified)\n\n## Google Maps Integration Analysis\n\n### Correlation Summary\n- **Total Google Maps Matches:** 2\n- **High Confidence:** 1\n- **Medium Confidence:** 1\n- **Low Confidence:** 0\n\n### Coordinate Verification Analysis\n\n**Current JSON Coordinates:** 28.57758, -14.043362\n**Google Maps Proposed:** 28.5712559, -14.0483969\n**Coordinate Variance:** 0.0 meters\n**Confidence Level:** MEDIUM\n\n**Assessment:** EXCELLENT coordinate match - Google Maps validates existing coordinates\n\n### Recommendations\n\n1. **REVIEW COORDINATES - high variance (0m) suggests potential spot confusion**\n\n### Google Maps Integration Sources\n\n- surfermap Fuerteventura\n"
  },
  "las-playas-muelle": {
    "research_data": {
      "error": "No correlations found for las-playas-muelle"
    },
    "markdown_update": "# Error\n\nNo correlations found for las-playas-muelle"
  },
  "las-salinas": {
    "research_data": {
      "error": "No correlations found for las-salinas"
    },
    "markdown_update": "# Error\n\nNo correlations found for las-salinas"
  },
  "isla-de-lobos": {
    "research_data": {
      "spot_id": "isla-de-lobos",
      "spot_name": "Isla de Lobos",
      "current_coordinates": {
        "lat": 28.750188,
        "lng": -13.836116,
        "accuracy": "verified"
      },
      "research_file_path": "/Users/frederic/github/lavolcanica/docs/surf-spots-coordinates-research/isla-de-lobos-research.md",
      "correlation_analysis": {
        "status": "correlations_found",
        "total_correlations": 3,
        "high_confidence": 2,
        "medium_confidence": 0,
        "low_confidence": 1,
        "high_confidence_matches": [
          {
            "google_name": "Los Lobos",
            "google_source": "Surf and Unwind surf guide Fuerteventura",
            "google_lat": 28.739152,
            "google_lng": -13.832321,
            "matched_id": "isla-de-lobos",
            "matched_name": "Isla de Lobos",
            "existing_lat": 28.750188,
            "existing_lng": -13.836116,
            "distance_km": 1.281709242332956,
            "confidence": "HIGH",
            "reason": "Special mapping applied: los lobos → Isla de Lobos, 1.3km",
            "score": 90
          },
          {
            "google_name": "Lobos",
            "google_source": "Surfspots Fuerteventura Planet Surfcamps",
            "google_lat": 28.7404196,
            "google_lng": -13.833375,
            "matched_id": "isla-de-lobos",
            "matched_name": "Isla de Lobos",
            "existing_lat": 28.750188,
            "existing_lng": -13.836116,
            "distance_km": 1.1185849618791532,
            "confidence": "HIGH",
            "reason": "Special mapping applied: los lobos → Isla de Lobos, 1.1km",
            "score": 90
          }
        ],
        "proposed_coordinates": {
          "lat": 28.7397858,
          "lng": -13.832848,
          "variance_meters": 91.49467073129131,
          "confidence": "HIGH"
        }
      },
      "descriptions_from_sources": {},
      "url_data": {},
      "recommendations": [
        "UPDATE COORDINATES to 28.7397858, -13.8328480 (variance: 91m, confidence: HIGH)"
      ]
    },
    "markdown_update": "# Isla de Lobos GPS Coordinate Research - Google Maps Integration\n\n**Spot ID:** isla-de-lobos\n**Primary Name:** Isla de Lobos\n**Current JSON Coordinates:** 28.750188, -13.836116 (verified)\n\n## Google Maps Integration Analysis\n\n### Correlation Summary\n- **Total Google Maps Matches:** 3\n- **High Confidence:** 2\n- **Medium Confidence:** 0\n- **Low Confidence:** 1\n\n### Coordinate Verification Analysis\n\n**Current JSON Coordinates:** 28.750188, -13.836116\n**Google Maps Proposed:** 28.7397858, -13.8328480\n**Coordinate Variance:** 91.5 meters\n**Confidence Level:** HIGH\n\n**Assessment:** GOOD coordinate match - minor adjustment recommended\n\n### Recommendations\n\n1. **UPDATE COORDINATES to 28.7397858, -13.8328480 (variance: 91m, confidence: HIGH)**\n\n### Google Maps Integration Sources\n\n- Surf and Unwind surf guide Fuerteventura\n- Surfspots Fuerteventura Planet Surfcamps\n"
  },
  "los-hoteles": {
    "research_data": {
      "error": "No correlations found for los-hoteles"
    },
    "markdown_update": "# Error\n\nNo correlations found for los-hoteles"
  },
  "majanicho": {
    "research_data": {
      "spot_id": "majanicho",
      "spot_name": "Majanicho",
      "current_coordinates": {
        "lat": 28.743887,
        "lng": -13.936072,
        "accuracy": "verified"
      },
      "research_file_path": "/Users/frederic/github/lavolcanica/docs/surf-spots-coordinates-research/majanicho-research.md",
      "correlation_analysis": {
        "status": "correlations_found",
        "total_correlations": 15,
        "high_confidence": 9,
        "medium_confidence": 6,
        "low_confidence": 0,
        "high_confidence_matches": [
          {
            "google_name": "Machanicho",
            "google_source": "Surfspots Fuerteventura Planet Surfcamps",
            "google_lat": 28.74644,
            "google_lng": -13.9357495,
            "matched_id": "majanicho",
            "matched_name": "Majanicho",
            "existing_lat": 28.743887,
            "existing_lng": -13.936072,
            "distance_km": 0.28561647532681295,
            "confidence": "HIGH",
            "reason": "Special mapping applied: machanicho → Majanicho, 0.3km",
            "score": 90
          },
          {
            "google_name": "Machanicho",
            "google_source": "Surfspots Fuerteventura Planet Surfcamps",
            "google_lat": 28.7452736,
            "google_lng": -13.9366293,
            "matched_id": "majanicho",
            "matched_name": "Majanicho",
            "existing_lat": 28.743887,
            "existing_lng": -13.936072,
            "distance_km": 0.16347598579532346,
            "confidence": "HIGH",
            "reason": "Special mapping applied: machanicho → Majanicho, 0.2km",
            "score": 90
          },
          {
            "google_name": "Machanicho",
            "google_source": "Surfspots Fuerteventura Planet Surfcamps",
            "google_lat": 28.7445211,
            "google_lng": -13.9371872,
            "matched_id": "majanicho",
            "matched_name": "Majanicho",
            "existing_lat": 28.743887,
            "existing_lng": -13.936072,
            "distance_km": 0.12958557757801703,
            "confidence": "HIGH",
            "reason": "Special mapping applied: machanicho → Majanicho, 0.1km",
            "score": 90
          },
          {
            "google_name": "Machanicho",
            "google_source": "Surfspots Fuerteventura Planet Surfcamps",
            "google_lat": 28.7441824,
            "google_lng": -13.9365864,
            "matched_id": "majanicho",
            "matched_name": "Majanicho",
            "existing_lat": 28.743887,
            "existing_lng": -13.936072,
            "distance_km": 0.059949926567367216,
            "confidence": "HIGH",
            "reason": "Special mapping applied: machanicho → Majanicho, 0.1km",
            "score": 90
          },
          {
            "google_name": "Majanicho",
            "google_source": "surfermap Fuerteventura",
            "google_lat": 28.743204108197805,
            "google_lng": -13.9351487159729,
            "matched_id": "majanicho",
            "matched_name": "Majanicho",
            "existing_lat": 28.743887,
            "existing_lng": -13.936072,
            "distance_km": 0.11776484194088015,
            "confidence": "HIGH",
            "reason": "Exact name match, 0.1km from existing coordinates",
            "score": 100.0
          },
          {
            "google_name": "Majanicho",
            "google_source": "surfermap Fuerteventura",
            "google_lat": 28.742809018925428,
            "google_lng": -13.93517017364502,
            "matched_id": "majanicho",
            "matched_name": "Majanicho",
            "existing_lat": 28.743887,
            "existing_lng": -13.936072,
            "distance_km": 0.14865470963486072,
            "confidence": "HIGH",
            "reason": "Exact name match, 0.1km from existing coordinates",
            "score": 100.0
          },
          {
            "google_name": "Majanicho",
            "google_source": "surfermap Fuerteventura",
            "google_lat": 28.74585681175729,
            "google_lng": -13.932209014892578,
            "matched_id": "majanicho",
            "matched_name": "Majanicho",
            "existing_lat": 28.743887,
            "existing_lng": -13.936072,
            "distance_km": 0.4356738659155244,
            "confidence": "HIGH",
            "reason": "Exact name match, 0.4km from existing coordinates",
            "score": 100.0
          },
          {
            "google_name": "Majanicho",
            "google_source": "surfermap Fuerteventura",
            "google_lat": 28.748584699058835,
            "google_lng": -13.931125402450562,
            "matched_id": "majanicho",
            "matched_name": "Majanicho",
            "existing_lat": 28.743887,
            "existing_lng": -13.936072,
            "distance_km": 0.7109321481813428,
            "confidence": "HIGH",
            "reason": "Exact name match, 0.7km from existing coordinates",
            "score": 100.0
          },
          {
            "google_name": "Majanicho · Inside",
            "google_source": "surfermap Fuerteventura",
            "google_lat": 28.742959529300595,
            "google_lng": -13.935095071792603,
            "matched_id": "majanicho",
            "matched_name": "Majanicho",
            "existing_lat": 28.743887,
            "existing_lng": -13.936072,
            "distance_km": 0.14038265863381225,
            "confidence": "HIGH",
            "reason": "Exact name match, 0.1km from existing coordinates",
            "score": 100.0
          }
        ],
        "proposed_coordinates": {
          "lat": 28.744870140804437,
          "lng": -13.934988975417074,
          "variance_meters": 291.44597952211154,
          "confidence": "MEDIUM"
        }
      },
      "descriptions_from_sources": {},
      "url_data": {},
      "recommendations": [
        "REVIEW COORDINATES - high variance (291m) suggests potential spot confusion"
      ]
    },
    "markdown_update": "# Majanicho GPS Coordinate Research - Google Maps Integration\n\n**Spot ID:** majanicho\n**Primary Name:** Majanicho\n**Current JSON Coordinates:** 28.743887, -13.936072 (verified)\n\n## Google Maps Integration Analysis\n\n### Correlation Summary\n- **Total Google Maps Matches:** 15\n- **High Confidence:** 9\n- **Medium Confidence:** 6\n- **Low Confidence:** 0\n\n### Coordinate Verification Analysis\n\n**Current JSON Coordinates:** 28.743887, -13.936072\n**Google Maps Proposed:** 28.7448701, -13.9349890\n**Coordinate Variance:** 291.4 meters\n**Confidence Level:** MEDIUM\n\n**Assessment:** REQUIRES REVIEW - high variance suggests potential spot confusion\n\n### Recommendations\n\n1. **REVIEW COORDINATES - high variance (291m) suggests potential spot confusion**\n\n### Google Maps Integration Sources\n\n- Surfspots Fuerteventura Planet Surfcamps\n- surfermap Fuerteventura\n"
  },
  "mejillones-popcorn-reef": {
    "research_data": {
      "spot_id": "mejillones-popcorn-reef",
      "spot_name": "Mejillones",
      "current_coordinates": {
        "lat": 28.7415,
        "lng": -13.9353,
        "accuracy": "unverified"
      },
      "research_file_path": "/Users/frederic/github/lavolcanica/docs/surf-spots-coordinates-research/mejillones-popcorn-reef-research.md",
      "correlation_analysis": {
        "status": "correlations_found",
        "total_correlations": 1,
        "high_confidence": 0,
        "medium_confidence": 1,
        "low_confidence": 0,
        "high_confidence_matches": [],
        "proposed_coordinates": null
      },
      "descriptions_from_sources": {},
      "url_data": {},
      "recommendations": []
    },
    "markdown_update": "# Mejillones GPS Coordinate Research - Google Maps Integration\n\n**Spot ID:** mejillones-popcorn-reef\n**Primary Name:** Mejillones\n**Current JSON Coordinates:** 28.7415, -13.9353 (unverified)\n\n## Google Maps Integration Analysis\n\n### Correlation Summary\n- **Total Google Maps Matches:** 1\n- **High Confidence:** 0\n- **Medium Confidence:** 1\n- **Low Confidence:** 0\n\n### Google Maps Integration Sources\n\n"
  },
  "pico-de-las-motos": {
    "research_data": {
      "error": "No correlations found for pico-de-las-motos"
    },
    "markdown_update": "# Error\n\nNo correlations found for pico-de-las-motos"
  },
  "playa-blanca": {
    "research_data": {
      "spot_id": "playa-blanca",
      "spot_name": "Playa Blanca",
      "current_coordinates": {
        "lat": 28.4833,
        "lng": -13.85,
        "accuracy": "verified"
      },
      "research_file_path": "/Users/frederic/github/lavolcanica/docs/surf-spots-coordinates-research/playa-blanca-research.md",
      "correlation_analysis": {
        "status": "correlations_found",
        "total_correlations": 5,
        "high_confidence": 4,
        "medium_confidence": 0,
        "low_confidence": 1,
        "high_confidence_matches": [
          {
            "google_name": "Playa Blanca",
            "google_source": "FreshSurf surfspots aus Fuerteventura",
            "google_lat": 28.4804611,
            "google_lng": -13.8659477,
            "matched_id": "playa-blanca",
            "matched_name": "Playa Blanca",
            "existing_lat": 28.4833,
            "existing_lng": -13.85,
            "distance_km": 1.590321286797081,
            "confidence": "HIGH",
            "reason": "Exact name match, 1.6km from existing coordinates",
            "score": 94.0
          },
          {
            "google_name": "Playa Blanca",
            "google_source": "Surf and Unwind surf guide Fuerteventura",
            "google_lat": 28.476637,
            "google_lng": -13.866552,
            "matched_id": "playa-blanca",
            "matched_name": "Playa Blanca",
            "existing_lat": 28.4833,
            "existing_lng": -13.85,
            "distance_km": 1.7793525227570313,
            "confidence": "HIGH",
            "reason": "Exact name match, 1.8km from existing coordinates",
            "score": 94.0
          },
          {
            "google_name": "Playa Blanca\n",
            "google_source": "Surfspots Fuerteventura Planet Surfcamps",
            "google_lat": 28.4767455,
            "google_lng": -13.8662803,
            "matched_id": "playa-blanca",
            "matched_name": "Playa Blanca",
            "existing_lat": 28.4833,
            "existing_lng": -13.85,
            "distance_km": 1.7501842325825987,
            "confidence": "HIGH",
            "reason": "Exact name match, 1.8km from existing coordinates",
            "score": 94.0
          },
          {
            "google_name": "Playa Blanca",
            "google_source": "surfermap Fuerteventura",
            "google_lat": 28.47685864397556,
            "google_lng": -13.866913318634033,
            "matched_id": "playa-blanca",
            "matched_name": "Playa Blanca",
            "existing_lat": 28.4833,
            "existing_lng": -13.85,
            "distance_km": 1.8015789850793835,
            "confidence": "HIGH",
            "reason": "Exact name match, 1.8km from existing coordinates",
            "score": 94.0
          }
        ],
        "proposed_coordinates": {
          "lat": 28.477675560993887,
          "lng": -13.866423329658508,
          "variance_meters": 183.01144707294657,
          "confidence": "MEDIUM"
        }
      },
      "descriptions_from_sources": {},
      "url_data": {},
      "recommendations": [
        "REVIEW COORDINATES - high variance (183m) suggests potential spot confusion"
      ]
    },
    "markdown_update": "# Playa Blanca GPS Coordinate Research - Google Maps Integration\n\n**Spot ID:** playa-blanca\n**Primary Name:** Playa Blanca\n**Current JSON Coordinates:** 28.4833, -13.85 (verified)\n\n## Google Maps Integration Analysis\n\n### Correlation Summary\n- **Total Google Maps Matches:** 5\n- **High Confidence:** 4\n- **Medium Confidence:** 0\n- **Low Confidence:** 1\n\n### Coordinate Verification Analysis\n\n**Current JSON Coordinates:** 28.4833, -13.85\n**Google Maps Proposed:** 28.4776756, -13.8664233\n**Coordinate Variance:** 183.0 meters\n**Confidence Level:** MEDIUM\n\n**Assessment:** REQUIRES REVIEW - high variance suggests potential spot confusion\n\n### Recommendations\n\n1. **REVIEW COORDINATES - high variance (183m) suggests potential spot confusion**\n\n### Google Maps Integration Sources\n\n- FreshSurf surfspots aus Fuerteventura\n- Surf and Unwind surf guide Fuerteventura\n- Surfspots Fuerteventura Planet Surfcamps\n- surfermap Fuerteventura\n"
  },
  "puerto-lajas": {
    "research_data": {
      "spot_id": "puerto-lajas",
      "spot_name": "Puerto Lajas",
      "current_coordinates": {
        "lat": 28.533,
        "lng": -13.833,
        "accuracy": "verified"
      },
      "research_file_path": "/Users/frederic/github/lavolcanica/docs/surf-spots-coordinates-research/puerto-lajas-research.md",
      "correlation_analysis": {
        "status": "correlations_found",
        "total_correlations": 3,
        "high_confidence": 3,
        "medium_confidence": 0,
        "low_confidence": 0,
        "high_confidence_matches": [
          {
            "google_name": "Puerto Lajas",
            "google_source": "FreshSurf surfspots aus Fuerteventura",
            "google_lat": 28.5401954,
            "google_lng": -13.8371086,
            "matched_id": "puerto-lajas",
            "matched_name": "Puerto Lajas",
            "existing_lat": 28.533,
            "existing_lng": -13.833,
            "distance_km": 0.8951153374618197,
            "confidence": "HIGH",
            "reason": "Exact name match, 0.9km from existing coordinates",
            "score": 100.0
          },
          {
            "google_name": "Puerto Lajas",
            "google_source": "surfermap Fuerteventura",
            "google_lat": 28.54343760518725,
            "google_lng": -13.836851119995117,
            "matched_id": "puerto-lajas",
            "matched_name": "Puerto Lajas",
            "existing_lat": 28.533,
            "existing_lng": -13.833,
            "distance_km": 1.2200554876512237,
            "confidence": "HIGH",
            "reason": "Exact name match, 1.2km from existing coordinates",
            "score": 94.0
          },
          {
            "google_name": "Puerto Lajas",
            "google_source": "surfermap Fuerteventura",
            "google_lat": 28.543258533818257,
            "google_lng": -13.837054967880249,
            "matched_id": "puerto-lajas",
            "matched_name": "Puerto Lajas",
            "existing_lat": 28.533,
            "existing_lng": -13.833,
            "distance_km": 1.2075144595301224,
            "confidence": "HIGH",
            "reason": "Exact name match, 1.2km from existing coordinates",
            "score": 94.0
          }
        ],
        "proposed_coordinates": {
          "lat": 28.542297179668505,
          "lng": -13.837004895958456,
          "variance_meters": 165.62398628252888,
          "confidence": "MEDIUM"
        }
      },
      "descriptions_from_sources": {},
      "url_data": {},
      "recommendations": [
        "REVIEW COORDINATES - high variance (166m) suggests potential spot confusion"
      ]
    },
    "markdown_update": "# Puerto Lajas GPS Coordinate Research - Google Maps Integration\n\n**Spot ID:** puerto-lajas\n**Primary Name:** Puerto Lajas\n**Current JSON Coordinates:** 28.533, -13.833 (verified)\n\n## Google Maps Integration Analysis\n\n### Correlation Summary\n- **Total Google Maps Matches:** 3\n- **High Confidence:** 3\n- **Medium Confidence:** 0\n- **Low Confidence:** 0\n\n### Coordinate Verification Analysis\n\n**Current JSON Coordinates:** 28.533, -13.833\n**Google Maps Proposed:** 28.5422972, -13.8370049\n**Coordinate Variance:** 165.6 meters\n**Confidence Level:** MEDIUM\n\n**Assessment:** REQUIRES REVIEW - high variance suggests potential spot confusion\n\n### Recommendations\n\n1. **REVIEW COORDINATES - high variance (166m) suggests potential spot confusion**\n\n### Google Maps Integration Sources\n\n- FreshSurf surfspots aus Fuerteventura\n- surfermap Fuerteventura\n"
  },
  "punta-blanca": {
    "research_data": {
      "spot_id": "punta-blanca",
      "spot_name": "Punta Blanca",
      "current_coordinates": {
        "lat": 28.725376,
        "lng": -13.989917,
        "accuracy": "verified"
      },
      "research_file_path": "/Users/frederic/github/lavolcanica/docs/surf-spots-coordinates-research/punta-blanca-research.md",
      "correlation_analysis": {
        "status": "correlations_found",
        "total_correlations": 5,
        "high_confidence": 5,
        "medium_confidence": 0,
        "low_confidence": 0,
        "high_confidence_matches": [
          {
            "google_name": "Punta Blanca",
            "google_source": "FreshSurf surfspots aus Fuerteventura",
            "google_lat": 28.7241252,
            "google_lng": -13.9890289,
            "matched_id": "punta-blanca",
            "matched_name": "Punta Blanca",
            "existing_lat": 28.725376,
            "existing_lng": -13.989917,
            "distance_km": 0.16383976886266013,
            "confidence": "HIGH",
            "reason": "Exact name match, 0.2km from existing coordinates",
            "score": 100.0
          },
          {
            "google_name": "Punta Blanca",
            "google_source": "Surfspots Fuerteventura Planet Surfcamps",
            "google_lat": 28.7256588,
            "google_lng": -13.989619,
            "matched_id": "punta-blanca",
            "matched_name": "Punta Blanca",
            "existing_lat": 28.725376,
            "existing_lng": -13.989917,
            "distance_km": 0.042816113229461855,
            "confidence": "HIGH",
            "reason": "Exact name match, 0.0km from existing coordinates",
            "score": 100.0
          },
          {
            "google_name": "Punta Blanca",
            "google_source": "Surfspots Fuerteventura Planet Surfcamps",
            "google_lat": 28.7255553,
            "google_lng": -13.9877415,
            "matched_id": "punta-blanca",
            "matched_name": "Punta Blanca",
            "existing_lat": 28.725376,
            "existing_lng": -13.989917,
            "distance_km": 0.21306884001020993,
            "confidence": "HIGH",
            "reason": "Exact name match, 0.2km from existing coordinates",
            "score": 100.0
          },
          {
            "google_name": "Punta Blanca",
            "google_source": "surfermap Fuerteventura",
            "google_lat": 28.725023751110008,
            "google_lng": -13.986963629722595,
            "matched_id": "punta-blanca",
            "matched_name": "Punta Blanca",
            "existing_lat": 28.725376,
            "existing_lng": -13.989917,
            "distance_km": 0.2906366219028923,
            "confidence": "HIGH",
            "reason": "Exact name match, 0.3km from existing coordinates",
            "score": 100.0
          },
          {
            "google_name": "Punta Blanca",
            "google_source": "surfermap Fuerteventura",
            "google_lat": 28.725023751110033,
            "google_lng": -13.986904621124268,
            "matched_id": "punta-blanca",
            "matched_name": "Punta Blanca",
            "existing_lat": 28.725376,
            "existing_lng": -13.989917,
            "distance_km": 0.29633911486803194,
            "confidence": "HIGH",
            "reason": "Exact name match, 0.3km from existing coordinates",
            "score": 100.0
          }
        ],
        "proposed_coordinates": {
          "lat": 28.72507736044401,
          "lng": -13.988051530169372,
          "variance_meters": 135.8207857469578,
          "confidence": "MEDIUM"
        }
      },
      "descriptions_from_sources": {},
      "url_data": {},
      "recommendations": [
        "REVIEW COORDINATES - high variance (136m) suggests potential spot confusion"
      ]
    },
    "markdown_update": "# Punta Blanca GPS Coordinate Research - Google Maps Integration\n\n**Spot ID:** punta-blanca\n**Primary Name:** Punta Blanca\n**Current JSON Coordinates:** 28.725376, -13.989917 (verified)\n\n## Google Maps Integration Analysis\n\n### Correlation Summary\n- **Total Google Maps Matches:** 5\n- **High Confidence:** 5\n- **Medium Confidence:** 0\n- **Low Confidence:** 0\n\n### Coordinate Verification Analysis\n\n**Current JSON Coordinates:** 28.725376, -13.989917\n**Google Maps Proposed:** 28.7250774, -13.9880515\n**Coordinate Variance:** 135.8 meters\n**Confidence Level:** MEDIUM\n\n**Assessment:** REQUIRES REVIEW - high variance suggests potential spot confusion\n\n### Recommendations\n\n1. **REVIEW COORDINATES - high variance (136m) suggests potential spot confusion**\n\n### Google Maps Integration Sources\n\n- FreshSurf surfspots aus Fuerteventura\n- Surfspots Fuerteventura Planet Surfcamps\n- surfermap Fuerteventura\n"
  },
  "punta-del-tigre": {
    "research_data": {
      "error": "No correlations found for punta-del-tigre"
    },
    "markdown_update": "# Error\n\nNo correlations found for punta-del-tigre"
  },
  "punta-elena": {
    "research_data": {
      "spot_id": "punta-elena",
      "spot_name": "Punta Elena",
      "current_coordinates": {
        "lat": 28.73,
        "lng": -13.94,
        "accuracy": "unverified"
      },
      "research_file_path": "/Users/frederic/github/lavolcanica/docs/surf-spots-coordinates-research/punta-elena-research.md",
      "correlation_analysis": {
        "status": "correlations_found",
        "total_correlations": 10,
        "high_confidence": 0,
        "medium_confidence": 10,
        "low_confidence": 0,
        "high_confidence_matches": [],
        "proposed_coordinates": null
      },
      "descriptions_from_sources": {},
      "url_data": {},
      "recommendations": []
    },
    "markdown_update": "# Punta Elena GPS Coordinate Research - Google Maps Integration\n\n**Spot ID:** punta-elena\n**Primary Name:** Punta Elena\n**Current JSON Coordinates:** 28.73, -13.94 (unverified)\n\n## Google Maps Integration Analysis\n\n### Correlation Summary\n- **Total Google Maps Matches:** 10\n- **High Confidence:** 0\n- **Medium Confidence:** 10\n- **Low Confidence:** 0\n\n### Google Maps Integration Sources\n\n"
  },
  "punta-gorda": {
    "research_data": {
      "spot_id": "punta-gorda",
      "spot_name": "Punta Gorda",
      "current_coordinates": {
        "lat": 28.687,
        "lng": -13.83,
        "accuracy": "verified"
      },
      "research_file_path": "/Users/frederic/github/lavolcanica/docs/surf-spots-coordinates-research/punta-gorda-research.md",
      "correlation_analysis": {
        "status": "correlations_found",
        "total_correlations": 2,
        "high_confidence": 0,
        "medium_confidence": 2,
        "low_confidence": 0,
        "high_confidence_matches": [],
        "proposed_coordinates": null
      },
      "descriptions_from_sources": {},
      "url_data": {},
      "recommendations": []
    },
    "markdown_update": "# Punta Gorda GPS Coordinate Research - Google Maps Integration\n\n**Spot ID:** punta-gorda\n**Primary Name:** Punta Gorda\n**Current JSON Coordinates:** 28.687, -13.83 (verified)\n\n## Google Maps Integration Analysis\n\n### Correlation Summary\n- **Total Google Maps Matches:** 2\n- **High Confidence:** 0\n- **Medium Confidence:** 2\n- **Low Confidence:** 0\n\n### Google Maps Integration Sources\n\n"
  },
  "playa-de-garcey-racetracks": {
    "research_data": {
      "spot_id": "playa-de-garcey-racetracks",
      "spot_name": "Playa de Garcey",
      "current_coordinates": {
        "lat": 28.3465,
        "lng": -14.1782,
        "accuracy": "unverified"
      },
      "research_file_path": "/Users/frederic/github/lavolcanica/docs/surf-spots-coordinates-research/playa-de-garcey-racetracks-research.md",
      "correlation_analysis": {
        "status": "correlations_found",
        "total_correlations": 1,
        "high_confidence": 1,
        "medium_confidence": 0,
        "low_confidence": 0,
        "high_confidence_matches": [
          {
            "google_name": "Playa de Garcey",
            "google_source": "surfermap Fuerteventura",
            "google_lat": 28.346643617010102,
            "google_lng": -14.176504611968994,
            "matched_id": "playa-de-garcey-racetracks",
            "matched_name": "Playa de Garcey",
            "existing_lat": 28.3465,
            "existing_lng": -14.1782,
            "distance_km": 0.16668038470845176,
            "confidence": "HIGH",
            "reason": "Exact name match, 0.2km from existing coordinates",
            "score": 100.0
          }
        ],
        "proposed_coordinates": {
          "lat": 28.346643617010102,
          "lng": -14.176504611968994,
          "variance_meters": 0.0,
          "confidence": "MEDIUM"
        }
      },
      "descriptions_from_sources": {},
      "url_data": {},
      "recommendations": [
        "REVIEW COORDINATES - high variance (0m) suggests potential spot confusion"
      ]
    },
    "markdown_update": "# Playa de Garcey GPS Coordinate Research - Google Maps Integration\n\n**Spot ID:** playa-de-garcey-racetracks\n**Primary Name:** Playa de Garcey\n**Current JSON Coordinates:** 28.3465, -14.1782 (unverified)\n\n## Google Maps Integration Analysis\n\n### Correlation Summary\n- **Total Google Maps Matches:** 1\n- **High Confidence:** 1\n- **Medium Confidence:** 0\n- **Low Confidence:** 0\n\n### Coordinate Verification Analysis\n\n**Current JSON Coordinates:** 28.3465, -14.1782\n**Google Maps Proposed:** 28.3466436, -14.1765046\n**Coordinate Variance:** 0.0 meters\n**Confidence Level:** MEDIUM\n\n**Assessment:** EXCELLENT coordinate match - Google Maps validates existing coordinates\n\n### Recommendations\n\n1. **REVIEW COORDINATES - high variance (0m) suggests potential spot confusion**\n\n### Google Maps Integration Sources\n\n- surfermap Fuerteventura\n"
  },
  "suicidios": {
    "research_data": {
      "spot_id": "suicidios",
      "spot_name": "Suicidios",
      "current_coordinates": {
        "lat": 28.7556,
        "lng": -13.8951,
        "accuracy": "medium"
      },
      "research_file_path": "/Users/frederic/github/lavolcanica/docs/surf-spots-coordinates-research/suicidios-research.md",
      "correlation_analysis": {
        "status": "correlations_found",
        "total_correlations": 1,
        "high_confidence": 0,
        "medium_confidence": 0,
        "low_confidence": 1,
        "high_confidence_matches": [],
        "proposed_coordinates": null
      },
      "descriptions_from_sources": {},
      "url_data": {},
      "recommendations": []
    },
    "markdown_update": "# Suicidios GPS Coordinate Research - Google Maps Integration\n\n**Spot ID:** suicidios\n**Primary Name:** Suicidios\n**Current JSON Coordinates:** 28.7556, -13.8951 (medium)\n\n## Google Maps Integration Analysis\n\n### Correlation Summary\n- **Total Google Maps Matches:** 1\n- **High Confidence:** 0\n- **Medium Confidence:** 0\n- **Low Confidence:** 1\n\n### Google Maps Integration Sources\n\n"
  },
  "waikiki-beach": {
    "research_data": {
      "spot_id": "waikiki-beach",
      "spot_name": "Waikiki Beach",
      "current_coordinates": {
        "lat": 28.73,
        "lng": -13.94,
        "accuracy": "unverified"
      },
      "research_file_path": "/Users/frederic/github/lavolcanica/docs/surf-spots-coordinates-research/waikiki-beach-research.md",
      "correlation_analysis": {
        "status": "correlations_found",
        "total_correlations": 5,
        "high_confidence": 0,
        "medium_confidence": 5,
        "low_confidence": 0,
        "high_confidence_matches": [],
        "proposed_coordinates": null
      },
      "descriptions_from_sources": {},
      "url_data": {},
      "recommendations": []
    },
    "markdown_update": "# Waikiki Beach GPS Coordinate Research - Google Maps Integration\n\n**Spot ID:** waikiki-beach\n**Primary Name:** Waikiki Beach\n**Current JSON Coordinates:** 28.73, -13.94 (unverified)\n\n## Google Maps Integration Analysis\n\n### Correlation Summary\n- **Total Google Maps Matches:** 5\n- **High Confidence:** 0\n- **Medium Confidence:** 5\n- **Low Confidence:** 0\n\n### Google Maps Integration Sources\n\n"
  }
}